{"name": "name", "address": "address", "city": "city", "state": "state", "postal_code": "postal_code", "latitude": "latitude", "longitude": "longitude", "rating": "rating", "price": "price", "descripton": "descripton"}
{"name": "Baldwinsville Bed and Breakfast", "address": "70 Oswego Street", "city": "Baldwinsville", "state": "NY", "postal_code": "13027", "latitude": "43.16099", "longitude": "-76.3338", "rating": "3.5", "price": "119.67", "descripton": ""}
{"name": "Park House Bed and Breakfast", "address": "85 Park Street", "city": "Binghamton", "state": "NY", "postal_code": "13905", "latitude": "42.10901", "longitude": "-75.94552", "rating": "3.0", "price": "102.94", "descripton": ""}
{"name": "Sankofa Aban Bed and Breakfast", "address": "107 Macon Street", "city": "Brooklyn", "state": "NY", "postal_code": "11216", "latitude": "40.68136", "longitude": "-73.947", "rating": "2.5", "price": "192.68", "descripton": ""}
{"name": "Lefferts Gardens Residence Bed and Breakfast", "address": "44 Rutland Road", "city": "Brooklyn", "state": "NY", "postal_code": "11225", "latitude": "40.65887", "longitude": "-73.95907", "rating": "2.5", "price": "144.44", "descripton": ""}
{"name": "Oyo Bed & Breakfast", "address": "1390 Bedford Avenue", "city": "Brooklyn", "state": "NY", "postal_code": "11216", "latitude": "40.67571", "longitude": "-73.95325", "rating": "2.5", "price": "132.52", "descripton": ""}
{"name": "Hipster's Cove Bed & Breakfast", "address": "1300 Sterling Place", "city": "Brooklyn", "state": "NY", "postal_code": "11213", "latitude": "40.67171", "longitude": "-73.9355", "rating": "2.5", "price": "69.66", "descripton": ""}
{"name": "Illumination Bed & Breakfast", "address": "138 Saint James Place", "city": "Brooklyn", "state": "NY", "postal_code": "11238", "latitude": "40.68579", "longitude": "-73.96457", "rating": "2.5", "price": "120.81", "descripton": ""}
{"name": "Burdett House Bed & Breakfast", "address": "3789 Main Street", "city": "Burdett", "state": "NY", "postal_code": "14818", "latitude": "42.41727", "longitude": "-76.85054", "rating": "3.0", "price": "125.71", "descripton": ""}
{"name": "Bed and Breakfast at Oliver Phelps", "address": "252 North Main Street", "city": "Canandaigua", "state": "NY", "postal_code": "14424", "latitude": "42.89552", "longitude": "-77.28726", "rating": "4.0", "price": "189.84", "descripton": ""}
{"name": "The Bella Ella Bed & Breakfast", "address": "2300 Brickyard Rd", "city": "Canandaigua", "state": "NY", "postal_code": "14424", "latitude": "42.91862", "longitude": "-77.3248", "rating": "3.0", "price": "78.2", "descripton": ""}
{"name": "Filigree Inn Bed & Breakfast", "address": "5406 Bristol Valley Road Route 64", "city": "Canandaigua", "state": "NY", "postal_code": "14424", "latitude": "42.75743", "longitude": "-77.40621", "rating": "3.0", "price": "169.55", "descripton": ""}
{"name": "Blue Horizon Bed and Breakfast", "address": "60 Dinch Road", "city": "Claryville", "state": "NY", "postal_code": "12725", "latitude": "41.92017", "longitude": "-74.50429", "rating": "2.5", "price": "150.88", "descripton": ""}
{"name": "Temple Hill Bed & Breakfast", "address": "114 Temple Hill Street", "city": "Geneseo", "state": "NY", "postal_code": "14454", "latitude": "42.79393", "longitude": "-77.80843", "rating": "3.0", "price": "139.85", "descripton": ""}
{"name": "Harbor Knoll Bed and Breakfast", "address": "424 Fourth Street", "city": "Greenport", "state": "NY", "postal_code": "11944", "latitude": "41.09886", "longitude": "-72.36378", "rating": "4.0", "price": "262.58", "descripton": ""}
{"name": "Ruah Bed & Breakfast", "address": "9221 Lake Shore Drive", "city": "Hague", "state": "NY", "postal_code": "12836", "latitude": "43.751", "longitude": "-73.48694", "rating": "3.5", "price": "160.42", "descripton": ""}
{"name": "Bellinger Rose Bed & Breakfast", "address": "611 W German St", "city": "Herkimer", "state": "NY", "postal_code": "13350", "latitude": "43.02757", "longitude": "-74.99687", "rating": "2.5", "price": "169.01", "descripton": ""}
{"name": "Stonegate Bed and Breakfast", "address": "34 North Road", "city": "Highland", "state": "NY", "postal_code": "12528", "latitude": "41.72659", "longitude": "-73.96506", "rating": "3.5", "price": "150.21", "descripton": ""}
{"name": "Greenwoods Bed & Breakfast Inn", "address": "8136 Quayle Rd", "city": "Honeoye", "state": "NY", "postal_code": "14471", "latitude": "42.80363", "longitude": "-77.48402", "rating": "3.0", "price": "159.1", "descripton": ""}
{"name": "Journey Inn Bed & Breakfast", "address": "1 Sherwood Place", "city": "Hyde Park", "state": "NY", "postal_code": "12538", "latitude": "41.79496", "longitude": "-73.93771", "rating": "4.0", "price": "160.71", "descripton": ""}
{"name": "JFK Bed & Breakfast Guesthouse", "address": "12804 143rd Street", "city": "Jamaica", "state": "NY", "postal_code": "11436", "latitude": "40.67222", "longitude": "-73.79577", "rating": "2.5", "price": "84.16", "descripton": ""}
{"name": "Spruce Lodge Bed & Breakfast & Guest Cottage", "address": "6034 Sentinel Road", "city": "Lake Placid", "state": "NY", "postal_code": "12946", "latitude": "44.27466", "longitude": "-73.98084", "rating": "2.0", "price": "75.41", "descripton": ""}
{"name": "North Fork Bed and Breakfast/Gifts", "address": "219 Baker Road", "city": "Lisbon", "state": "NY", "postal_code": "13658", "latitude": "44.71108", "longitude": "-75.27292", "rating": "3.0", "price": "104.88", "descripton": ""}
{"name": "The Fox and the Grapes Bed & Breakfast", "address": "9496 State Route 414", "city": "Lodi", "state": "NY", "postal_code": "14860", "latitude": "42.56433", "longitude": "-76.86162", "rating": "3.5", "price": "205.81", "descripton": ""}
{"name": "Mountain Treasure Bed and Breakfast", "address": "408 County Route 40", "city": "Maplecrest", "state": "NY", "postal_code": "12454", "latitude": "42.27513", "longitude": "-74.19433", "rating": "3.0", "price": "154.42", "descripton": ""}
{"name": "Allegiance Bed and Breakfast", "address": "145 Main Street", "city": "Mount Morris", "state": "NY", "postal_code": "14510", "latitude": "42.72149", "longitude": "-77.87158", "rating": "2.5", "price": "155.44", "descripton": ""}
{"name": "Bristol Views Bed and Breakfast", "address": "6932 County Rd. 12", "city": "Naples", "state": "NY", "postal_code": "14512", "latitude": "42.68428", "longitude": "-77.37563", "rating": "3.0", "price": "172.54", "descripton": ""}
{"name": "Harlem Bed and Breakfast", "address": "54 West 120th Street", "city": "New York", "state": "NY", "postal_code": "10027", "latitude": "40.80401", "longitude": "-73.9465", "rating": "1.5", "price": "180.0", "descripton": ""}
{"name": "Allies' Inn Bed and Breakfast", "address": "313 West 136th Street", "city": "New York", "state": "NY", "postal_code": "10030", "latitude": "40.81751", "longitude": "-73.94678", "rating": "3.0", "price": "278.0", "descripton": ""}
{"name": "Beautiful 1 Bedroom Apartment", "address": "953 Columbus Avenue", "city": "New York", "state": "NY", "postal_code": "10025", "latitude": "40.79974", "longitude": "-73.96243", "rating": "3.5", "price": "150.81", "descripton": ""}
{"name": "The Alpine Homestead Bed & Breakfast", "address": "1314 County Route 29", "city": "Olmstedville", "state": "NY", "postal_code": "12857", "latitude": "43.77172", "longitude": "-73.92332", "rating": "3.5", "price": "112.67", "descripton": ""}
{"name": "Finger Lakes Bed and Breakfast", "address": "128 South Avenue", "city": "Penn Yan", "state": "NY", "postal_code": "14527", "latitude": "42.65525", "longitude": "-77.05082", "rating": "3.0", "price": "139.86", "descripton": ""}
{"name": "Cider Mill Inn Bed and Breakfast", "address": "207 Glenwood Road", "city": "Pine Island", "state": "NY", "postal_code": "10969", "latitude": "41.27091", "longitude": "-74.47657", "rating": "3.5", "price": "180.4", "descripton": ""}
{"name": "Windsong Retreat Bed & Breakfast", "address": "78 Katrina Falls Road", "city": "Rock Hill", "state": "NY", "postal_code": "12775", "latitude": "41.62259", "longitude": "-74.60281", "rating": "3.0", "price": "159.95", "descripton": ""}
{"name": "Caldwell House Bed & Breakfast", "address": "25 Orrs Mills Road"